City,Population,lat,lng
tokyo,31480498,35.685,139.751389
shanghai,14608512,31.045556,121.399722
bombay,12,18.975,72.825833
karachi,11627378,24.9056,67.0822
delhi,10928270,28.666667,77.216667
new delhi,10928270,28.6,77.2
manila,10443877,14.6042,120.9822
moscow,200000,55.752222,37.615556
seoul,10323448,37.5985,126.9783
sao paulo,1002143700,-23.473293,-46.665803
