City,Population,lat,lng
tokyo,10,35.685,139.751389
shanghai,100,31.045556,121.399722
bombay,1000,18.975,72.825833
karachi,10000,24.9056,67.0822
delhi,100000,28.666667,77.216667
new delhi,1000000,28.6,77.2
manila,10000000,14.6042,120.9822
